1556199372.262068 GLOBAL_POSITION_INT {time_boot_ms : 14776655, lat : 535074908, lon : 492263868, alt : 54360, relative_alt : 360, vx : -45, vy : -39, vz : 2, hdg : 30361}
1556199380.259106 GLOBAL_POSITION_INT {time_boot_ms : 14784655, lat : 535074557, lon : 492263337, alt : 54310, relative_alt : 315, vx : -45, vy : -43, vz : -5, hdg : 31327}
1556199387.260308 GLOBAL_POSITION_INT {time_boot_ms : 14791655, lat : 535074286, lon : 492262845, alt : 54340, relative_alt : 344, vx : -40, vy : -47, vz : 2, hdg : 31765}
1556199395.268635 GLOBAL_POSITION_INT {time_boot_ms : 14799655, lat : 535073993, lon : 492262239, alt : 54320, relative_alt : 329, vx : -41, vy : -50, vz : -5, hdg : 32503}
1556199403.258264 GLOBAL_POSITION_INT {time_boot_ms : 14807655, lat : 535073723, lon : 492261601, alt : 54290, relative_alt : 297, vx : -36, vy : -53, vz : 0, hdg : 33051}
1556199411.257428 GLOBAL_POSITION_INT {time_boot_ms : 14815655, lat : 535073498, lon : 492260947, alt : 54360, relative_alt : 368, vx : -27, vy : -61, vz : -1, hdg : 34024}
1556199418.25421 GLOBAL_POSITION_INT {time_boot_ms : 14822655, lat : 535073317, lon : 492260372, alt : 54440, relative_alt : 440, vx : -28, vy : -56, vz : -9, hdg : 34456}
1556199426.253972 GLOBAL_POSITION_INT {time_boot_ms : 14830656, lat : 535073135, lon : 492259703, alt : 54470, relative_alt : 472, vx : -30, vy : -59, vz : 0, hdg : 34473}
1556199434.25179 GLOBAL_POSITION_INT {time_boot_ms : 14838655, lat : 535072925, lon : 492259003, alt : 54540, relative_alt : 542, vx : -28, vy : -55, vz : -5, hdg : 34882}
1556199441.250729 GLOBAL_POSITION_INT {time_boot_ms : 14845655, lat : 535072755, lon : 492258399, alt : 54500, relative_alt : 509, vx : -26, vy : -59, vz : -3, hdg : 35166}
1556199449.250685 GLOBAL_POSITION_INT {time_boot_ms : 14853655, lat : 535072549, lon : 492257715, alt : 54510, relative_alt : 519, vx : -26, vy : -58, vz : 1, hdg : 35399}
1556199457.24895 GLOBAL_POSITION_INT {time_boot_ms : 14861655, lat : 535072351, lon : 492257001, alt : 54520, relative_alt : 524, vx : -25, vy : -60, vz : 3, hdg : 35535}
1556199465.248188 GLOBAL_POSITION_INT {time_boot_ms : 14869655, lat : 535072151, lon : 492256290, alt : 54620, relative_alt : 620, vx : -25, vy : -58, vz : 0, hdg : 73}
1556199472.249066 GLOBAL_POSITION_INT {time_boot_ms : 14876655, lat : 535072005, lon : 492255670, alt : 54580, relative_alt : 583, vx : -21, vy : -57, vz : -3, hdg : 398}
1556199480.24751 GLOBAL_POSITION_INT {time_boot_ms : 14884655, lat : 535071829, lon : 492254985, alt : 54580, relative_alt : 588, vx : -24, vy : -56, vz : -1, hdg : 475}
1556199488.244847 GLOBAL_POSITION_INT {time_boot_ms : 14892655, lat : 535071669, lon : 492254301, alt : 54640, relative_alt : 642, vx : -20, vy : -56, vz : 4, hdg : 864}
1556199496.255164 GLOBAL_POSITION_INT {time_boot_ms : 14900655, lat : 535071493, lon : 492253608, alt : 54660, relative_alt : 662, vx : -25, vy : -60, vz : 0, hdg : 940}
1556199503.24313 GLOBAL_POSITION_INT {time_boot_ms : 14907655, lat : 535071314, lon : 492252984, alt : 54720, relative_alt : 729, vx : -27, vy : -56, vz : 0, hdg : 1145}
1556199511.241095 GLOBAL_POSITION_INT {time_boot_ms : 14915655, lat : 535071148, lon : 492252284, alt : 54780, relative_alt : 784, vx : -21, vy : -60, vz : 0, hdg : 1754}
1556199519.243755 GLOBAL_POSITION_INT {time_boot_ms : 14923655, lat : 535071003, lon : 492251599, alt : 54850, relative_alt : 857, vx : -14, vy : -57, vz : 1, hdg : 2166}
1556199527.250704 GLOBAL_POSITION_INT {time_boot_ms : 14931655, lat : 535070855, lon : 492250868, alt : 55020, relative_alt : 1024, vx : -20, vy : -63, vz : -5, hdg : 2889}
1556199534.2414 GLOBAL_POSITION_INT {time_boot_ms : 14938655, lat : 535070759, lon : 492250194, alt : 54950, relative_alt : 957, vx : -15, vy : -68, vz : -4, hdg : 3427}
1556199542.310611 GLOBAL_POSITION_INT {time_boot_ms : 14946655, lat : 535070671, lon : 492249455, alt : 54980, relative_alt : 989, vx : -14, vy : -63, vz : 2, hdg : 3817}
1556199550.239182 GLOBAL_POSITION_INT {time_boot_ms : 14954655, lat : 535070560, lon : 492248667, alt : 54980, relative_alt : 983, vx : -18, vy : -65, vz : -1, hdg : 4205}
1556199557.235979 GLOBAL_POSITION_INT {time_boot_ms : 14961655, lat : 535070489, lon : 492247969, alt : 55000, relative_alt : 1007, vx : -8, vy : -64, vz : 3, hdg : 4722}
1556199565.2372 GLOBAL_POSITION_INT {time_boot_ms : 14969655, lat : 535070443, lon : 492247167, alt : 55120, relative_alt : 1124, vx : -5, vy : -66, vz : -4, hdg : 5248}
1556199573.235928 GLOBAL_POSITION_INT {time_boot_ms : 14977655, lat : 535070434, lon : 492246362, alt : 55020, relative_alt : 1024, vx : 5, vy : -67, vz : 2, hdg : 5290}
1556199581.235383 GLOBAL_POSITION_INT {time_boot_ms : 14985655, lat : 535070142, lon : 492245675, alt : 55040, relative_alt : 1048, vx : -106, vy : -33, vz : 1, hdg : 34317}
1556199588.23545 GLOBAL_POSITION_INT {time_boot_ms : 14992655, lat : 535069694, lon : 492245586, alt : 55030, relative_alt : 1039, vx : -82, vy : -1, vz : 0, hdg : 31776}
1556199596.233271 GLOBAL_POSITION_INT {time_boot_ms : 15000655, lat : 535069248, lon : 492245811, alt : 55140, relative_alt : 1147, vx : -56, vy : 25, vz : 0, hdg : 31251}
1556199604.231686 GLOBAL_POSITION_INT {time_boot_ms : 15008656, lat : 535068772, lon : 492246002, alt : 55210, relative_alt : 1218, vx : -67, vy : 14, vz : -6, hdg : 31588}
1556199612.232195 GLOBAL_POSITION_INT {time_boot_ms : 15016656, lat : 535068313, lon : 492246188, alt : 55270, relative_alt : 1274, vx : -63, vy : 11, vz : 0, hdg : 32274}
1556199619.245002 GLOBAL_POSITION_INT {time_boot_ms : 15023655, lat : 535067893, lon : 492246309, alt : 55010, relative_alt : 1013, vx : -71, vy : 11, vz : 1, hdg : 32514}
1556199627.232998 GLOBAL_POSITION_INT {time_boot_ms : 15031655, lat : 535067404, lon : 492246464, alt : 55100, relative_alt : 1109, vx : -64, vy : 12, vz : 0, hdg : 32601}
1556199635.226911 GLOBAL_POSITION_INT {time_boot_ms : 15039655, lat : 535066933, lon : 492246612, alt : 55120, relative_alt : 1127, vx : -63, vy : 7, vz : -1, hdg : 33276}
1556199643.226456 GLOBAL_POSITION_INT {time_boot_ms : 15047655, lat : 535066450, lon : 492246710, alt : 55110, relative_alt : 1113, vx : -71, vy : 5, vz : -5, hdg : 33945}
1556199650.225501 GLOBAL_POSITION_INT {time_boot_ms : 15054655, lat : 535066027, lon : 492246733, alt : 54980, relative_alt : 987, vx : -63, vy : 3, vz : 1, hdg : 34394}
1556199658.226822 GLOBAL_POSITION_INT {time_boot_ms : 15062655, lat : 535065529, lon : 492246721, alt : 55000, relative_alt : 1006, vx : -68, vy : -5, vz : 1, hdg : 34931}
1556199666.224844 GLOBAL_POSITION_INT {time_boot_ms : 15070655, lat : 535065036, lon : 492246669, alt : 55100, relative_alt : 1108, vx : -65, vy : -7, vz : 1, hdg : 35604}
1556199673.222806 GLOBAL_POSITION_INT {time_boot_ms : 15077655, lat : 535064587, lon : 492246571, alt : 55060, relative_alt : 1064, vx : -68, vy : -9, vz : -1, hdg : 31}
1556199681.2244 GLOBAL_POSITION_INT {time_boot_ms : 15085655, lat : 535064074, lon : 492246441, alt : 55050, relative_alt : 1054, vx : -68, vy : -9, vz : -2, hdg : 353}
1556199689.220558 GLOBAL_POSITION_INT {time_boot_ms : 15093655, lat : 535063572, lon : 492246295, alt : 54990, relative_alt : 994, vx : -66, vy : -10, vz : 3, hdg : 924}
1556199697.222419 GLOBAL_POSITION_INT {time_boot_ms : 15101655, lat : 535063083, lon : 492246124, alt : 54950, relative_alt : 953, vx : -67, vy : -14, vz : 0, hdg : 1336}
1556199704.222984 GLOBAL_POSITION_INT {time_boot_ms : 15108656, lat : 535062649, lon : 492245949, alt : 55100, relative_alt : 1106, vx : -70, vy : -15, vz : -2, hdg : 1840}
1556199712.229449 GLOBAL_POSITION_INT {time_boot_ms : 15116655, lat : 535062152, lon : 492245670, alt : 55090, relative_alt : 1097, vx : -68, vy : -25, vz : -2, hdg : 2539}
1556199720.220232 GLOBAL_POSITION_INT {time_boot_ms : 15124655, lat : 535061648, lon : 492245363, alt : 55070, relative_alt : 1079, vx : -66, vy : -20, vz : 1, hdg : 2658}
1556199728.217772 GLOBAL_POSITION_INT {time_boot_ms : 15132655, lat : 535061164, lon : 492245060, alt : 55140, relative_alt : 1149, vx : -62, vy : -23, vz : 0, hdg : 3189}
1556199735.21801 GLOBAL_POSITION_INT {time_boot_ms : 15139655, lat : 535060752, lon : 492244785, alt : 55210, relative_alt : 1217, vx : -68, vy : -27, vz : -2, hdg : 3580}
1556199743.217124 GLOBAL_POSITION_INT {time_boot_ms : 15147655, lat : 535060290, lon : 492244455, alt : 55230, relative_alt : 1236, vx : -64, vy : -30, vz : -7, hdg : 3931}
1556199751.213666 GLOBAL_POSITION_INT {time_boot_ms : 15155655, lat : 535059835, lon : 492244084, alt : 55170, relative_alt : 1173, vx : -60, vy : -32, vz : 2, hdg : 4653}
1556199759.227556 GLOBAL_POSITION_INT {time_boot_ms : 15163655, lat : 535059394, lon : 492243682, alt : 55280, relative_alt : 1288, vx : -63, vy : -35, vz : -3, hdg : 4991}
1556199766.213779 GLOBAL_POSITION_INT {time_boot_ms : 15170655, lat : 535059005, lon : 492243350, alt : 55330, relative_alt : 1337, vx : -62, vy : -28, vz : -2, hdg : 5029}
1556199774.213234 GLOBAL_POSITION_INT {time_boot_ms : 15178655, lat : 535058551, lon : 492242957, alt : 55290, relative_alt : 1299, vx : -63, vy : -36, vz : -5, hdg : 5392}
1556199782.277853 GLOBAL_POSITION_INT {time_boot_ms : 15186655, lat : 535058090, lon : 492242545, alt : 55400, relative_alt : 1408, vx : -63, vy : -33, vz : 2, hdg : 5712}
1556199789.209476 GLOBAL_POSITION_INT {time_boot_ms : 15193655, lat : 535057704, lon : 492242161, alt : 55310, relative_alt : 1314, vx : -58, vy : -35, vz : 5, hdg : 6170}
1556199797.210462 GLOBAL_POSITION_INT {time_boot_ms : 15201655, lat : 535057288, lon : 492241708, alt : 55280, relative_alt : 1287, vx : -56, vy : -35, vz : 0, hdg : 6678}
1556199805.210521 GLOBAL_POSITION_INT {time_boot_ms : 15209655, lat : 535056895, lon : 492241201, alt : 55400, relative_alt : 1404, vx : -52, vy : -42, vz : -1, hdg : 7250}
1556199813.208357 GLOBAL_POSITION_INT {time_boot_ms : 15217655, lat : 535056519, lon : 492240688, alt : 55390, relative_alt : 1398, vx : -53, vy : -44, vz : 2, hdg : 7542}
1556199820.207505 GLOBAL_POSITION_INT {time_boot_ms : 15224655, lat : 535056192, lon : 492240218, alt : 55500, relative_alt : 1508, vx : -50, vy : -46, vz : 0, hdg : 7993}
1556199828.205476 GLOBAL_POSITION_INT {time_boot_ms : 15232655, lat : 535055845, lon : 492239690, alt : 55520, relative_alt : 1524, vx : -48, vy : -41, vz : 3, hdg : 8194}
1556199836.207045 GLOBAL_POSITION_INT {time_boot_ms : 15240655, lat : 535055484, lon : 492239169, alt : 55480, relative_alt : 1484, vx : -51, vy : -45, vz : 0, hdg : 8528}
1556199844.206371 GLOBAL_POSITION_INT {time_boot_ms : 15248655, lat : 535055119, lon : 492238622, alt : 55560, relative_alt : 1562, vx : -51, vy : -48, vz : 0, hdg : 9210}
1556199851.203412 GLOBAL_POSITION_INT {time_boot_ms : 15255655, lat : 535054810, lon : 492238123, alt : 55490, relative_alt : 1491, vx : -50, vy : -45, vz : 2, hdg : 9123}
1556199859.204676 GLOBAL_POSITION_INT {time_boot_ms : 15263655, lat : 535054425, lon : 492237584, alt : 55540, relative_alt : 1543, vx : -54, vy : -43, vz : -1, hdg : 9169}
1556199867.202021 GLOBAL_POSITION_INT {time_boot_ms : 15271655, lat : 535054036, lon : 492237022, alt : 55370, relative_alt : 1379, vx : -50, vy : -45, vz : 0, hdg : 9589}
1556199875.202944 GLOBAL_POSITION_INT {time_boot_ms : 15279655, lat : 535053666, lon : 492236444, alt : 55630, relative_alt : 1631, vx : -50, vy : -47, vz : -1, hdg : 10017}
1556199882.199001 GLOBAL_POSITION_INT {time_boot_ms : 15286655, lat : 535053358, lon : 492235929, alt : 55430, relative_alt : 1437, vx : -48, vy : -44, vz : 5, hdg : 10348}
1556199890.201097 GLOBAL_POSITION_INT {time_boot_ms : 15294655, lat : 535053023, lon : 492235386, alt : 55640, relative_alt : 1640, vx : -49, vy : -42, vz : 2, hdg : 10372}
1556199898.197812 GLOBAL_POSITION_INT {time_boot_ms : 15302655, lat : 535052665, lon : 492234843, alt : 55690, relative_alt : 1692, vx : -51, vy : -48, vz : 0, hdg : 10863}
1556199905.199525 GLOBAL_POSITION_INT {time_boot_ms : 15309655, lat : 535052365, lon : 492234340, alt : 55600, relative_alt : 1607, vx : -46, vy : -45, vz : 0, hdg : 11189}
1556199913.196384 GLOBAL_POSITION_INT {time_boot_ms : 15317655, lat : 535052015, lon : 492233759, alt : 55610, relative_alt : 1616, vx : -48, vy : -46, vz : 3, hdg : 11402}
1556199921.197777 GLOBAL_POSITION_INT {time_boot_ms : 15325655, lat : 535051675, lon : 492233172, alt : 55700, relative_alt : 1702, vx : -45, vy : -50, vz : -4, hdg : 11920}
1556199929.196803 GLOBAL_POSITION_INT {time_boot_ms : 15333655, lat : 535051334, lon : 492232537, alt : 55770, relative_alt : 1778, vx : -45, vy : -51, vz : 0, hdg : 12299}
1556199936.204462 GLOBAL_POSITION_INT {time_boot_ms : 15340655, lat : 535051055, lon : 492232015, alt : 55670, relative_alt : 1678, vx : -44, vy : -48, vz : 0, hdg : 12514}
1556199944.19532 GLOBAL_POSITION_INT {time_boot_ms : 15348655, lat : 535050741, lon : 492231389, alt : 55730, relative_alt : 1732, vx : -40, vy : -51, vz : -5, hdg : 12895}
1556199952.193935 GLOBAL_POSITION_INT {time_boot_ms : 15356655, lat : 535050423, lon : 492230794, alt : 55660, relative_alt : 1665, vx : -47, vy : -48, vz : 5, hdg : 12997}
1556199960.19556 GLOBAL_POSITION_INT {time_boot_ms : 15364655, lat : 535050094, lon : 492230221, alt : 55760, relative_alt : 1762, vx : -46, vy : -47, vz : -5, hdg : 13062}
1556199967.19063 GLOBAL_POSITION_INT {time_boot_ms : 15371655, lat : 535049800, lon : 492229708, alt : 55760, relative_alt : 1762, vx : -45, vy : -48, vz : -3, hdg : 13366}
1556199975.192126 GLOBAL_POSITION_INT {time_boot_ms : 15379655, lat : 535049472, lon : 492229100, alt : 55910, relative_alt : 1911, vx : -43, vy : -49, vz : 1, hdg : 13735}
1556199983.191338 GLOBAL_POSITION_INT {time_boot_ms : 15387655, lat : 535049137, lon : 492228538, alt : 55780, relative_alt : 1784, vx : -50, vy : -46, vz : 0, hdg : 13815}
1556199991.188243 GLOBAL_POSITION_INT {time_boot_ms : 15395655, lat : 535048813, lon : 492227951, alt : 55880, relative_alt : 1884, vx : -46, vy : -48, vz : -1, hdg : 14115}
1556199998.190963 GLOBAL_POSITION_INT {time_boot_ms : 15402655, lat : 535048529, lon : 492227464, alt : 56020, relative_alt : 2028, vx : -46, vy : -43, vz : -5, hdg : 14071}
1556200006.196576 GLOBAL_POSITION_INT {time_boot_ms : 15410655, lat : 535048171, lon : 492226886, alt : 56070, relative_alt : 2072, vx : -49, vy : -46, vz : 1, hdg : 14475}
1556200014.187288 GLOBAL_POSITION_INT {time_boot_ms : 15418655, lat : 535047833, lon : 492226317, alt : 55990, relative_alt : 1995, vx : -49, vy : -44, vz : 3, hdg : 14555}
1556200021.19734 GLOBAL_POSITION_INT {time_boot_ms : 15425655, lat : 535047517, lon : 492225825, alt : 56030, relative_alt : 2039, vx : -49, vy : -45, vz : -3, hdg : 14644}
1556200029.187762 GLOBAL_POSITION_INT {time_boot_ms : 15433655, lat : 535047131, lon : 492225314, alt : 56040, relative_alt : 2043, vx : -58, vy : -40, vz : 0, hdg : 14437}
1556200037.193753 GLOBAL_POSITION_INT {time_boot_ms : 15441655, lat : 535046728, lon : 492224811, alt : 56040, relative_alt : 2045, vx : -57, vy : -39, vz : 2, hdg : 14679}
1556200045.182477 GLOBAL_POSITION_INT {time_boot_ms : 15449655, lat : 535046317, lon : 492224305, alt : 56070, relative_alt : 2074, vx : -56, vy : -41, vz : 2, hdg : 14939}
1556200052.196196 GLOBAL_POSITION_INT {time_boot_ms : 15456655, lat : 535045967, lon : 492223864, alt : 56070, relative_alt : 2078, vx : -53, vy : -40, vz : -2, hdg : 15288}
1556200060.180463 GLOBAL_POSITION_INT {time_boot_ms : 15464655, lat : 535045580, lon : 492223338, alt : 56060, relative_alt : 2066, vx : -53, vy : -41, vz : 6, hdg : 15573}
1556200068.182342 GLOBAL_POSITION_INT {time_boot_ms : 15472655, lat : 535045188, lon : 492222814, alt : 56010, relative_alt : 2017, vx : -54, vy : -43, vz : 1, hdg : 15920}
1556200076.179407 GLOBAL_POSITION_INT {time_boot_ms : 15480655, lat : 535044804, lon : 492222284, alt : 55990, relative_alt : 1999, vx : -53, vy : -42, vz : 3, hdg : 16102}
1556200083.182311 GLOBAL_POSITION_INT {time_boot_ms : 15487655, lat : 535044468, lon : 492221826, alt : 56010, relative_alt : 2012, vx : -53, vy : -43, vz : -1, hdg : 16482}
1556200091.179383 GLOBAL_POSITION_INT {time_boot_ms : 15495655, lat : 535044115, lon : 492221299, alt : 56070, relative_alt : 2077, vx : -50, vy : -44, vz : 1, hdg : 17074}
1556200099.179531 GLOBAL_POSITION_INT {time_boot_ms : 15503655, lat : 535043781, lon : 492220748, alt : 56110, relative_alt : 2115, vx : -50, vy : -46, vz : 2, hdg : 17475}
1556200107.179484 GLOBAL_POSITION_INT {time_boot_ms : 15511655, lat : 535043450, lon : 492220166, alt : 56040, relative_alt : 2043, vx : -44, vy : -50, vz : -3, hdg : 18101}
1556200114.177404 GLOBAL_POSITION_INT {time_boot_ms : 15518655, lat : 535043194, lon : 492219627, alt : 56040, relative_alt : 2044, vx : -41, vy : -51, vz : -4, hdg : 18602}
1556200122.176817 GLOBAL_POSITION_INT {time_boot_ms : 15526655, lat : 535042881, lon : 492218996, alt : 56100, relative_alt : 2100, vx : -45, vy : -52, vz : -3, hdg : 18623}
1556200130.173729 GLOBAL_POSITION_INT {time_boot_ms : 15534655, lat : 535042553, lon : 492218390, alt : 56070, relative_alt : 2073, vx : -45, vy : -50, vz : 1, hdg : 18795}
1556200137.174207 GLOBAL_POSITION_INT {time_boot_ms : 15541655, lat : 535042262, lon : 492217865, alt : 55960, relative_alt : 1969, vx : -45, vy : -50, vz : -1, hdg : 19043}
1556200145.174464 GLOBAL_POSITION_INT {time_boot_ms : 15549655, lat : 535041943, lon : 492217270, alt : 56070, relative_alt : 2078, vx : -45, vy : -45, vz : 0, hdg : 19141}
1556200153.173367 GLOBAL_POSITION_INT {time_boot_ms : 15557655, lat : 535041614, lon : 492216714, alt : 56060, relative_alt : 2066, vx : -48, vy : -46, vz : -4, hdg : 19248}
1556200161.172624 GLOBAL_POSITION_INT {time_boot_ms : 15565655, lat : 535041285, lon : 492216127, alt : 56050, relative_alt : 2051, vx : -45, vy : -48, vz : -4, hdg : 19708}
1556200168.171437 GLOBAL_POSITION_INT {time_boot_ms : 15572655, lat : 535041009, lon : 492215610, alt : 56090, relative_alt : 2092, vx : -45, vy : -49, vz : 0, hdg : 20000}
1556200176.172612 GLOBAL_POSITION_INT {time_boot_ms : 15580655, lat : 535040690, lon : 492215013, alt : 56020, relative_alt : 2029, vx : -46, vy : -48, vz : -2, hdg : 20125}
1556200184.178304 GLOBAL_POSITION_INT {time_boot_ms : 15588655, lat : 535040388, lon : 492214498, alt : 54370, relative_alt : -2, vx : -24, vy : -23, vz : 18, hdg : 19975}
1556200192.169419 GLOBAL_POSITION_INT {time_boot_ms : 15596655, lat : 535040270, lon : 492214338, alt : 53480, relative_alt : 106, vx : -12, vy : -8, vz : 2, hdg : 19915}
1556200199.166392 GLOBAL_POSITION_INT {time_boot_ms : 15603655, lat : 535040202, lon : 492214260, alt : 53290, relative_alt : -29, vx : -10, vy : -3, vz : 1, hdg : 19973}
1556200207.167968 GLOBAL_POSITION_INT {time_boot_ms : 15611655, lat : 535040137, lon : 492214212, alt : 53270, relative_alt : -34, vx : -8, vy : -2, vz : 1, hdg : 20002}
1556200215.167214 GLOBAL_POSITION_INT {time_boot_ms : 15619655, lat : 535040094, lon : 492214198, alt : 53500, relative_alt : 244, vx : -4, vy : 2, vz : -6, hdg : 19937}
1556200223.166907 GLOBAL_POSITION_INT {time_boot_ms : 15627656, lat : 535040059, lon : 492214201, alt : 53440, relative_alt : -25, vx : -5, vy : 1, vz : -2, hdg : 19341}
1556200230.165491 GLOBAL_POSITION_INT {time_boot_ms : 15634656, lat : 535040037, lon : 492214217, alt : 53230, relative_alt : 30, vx : -4, vy : 1, vz : 0, hdg : 18494}
1556200238.162788 GLOBAL_POSITION_INT {time_boot_ms : 15642655, lat : 535040016, lon : 492214231, alt : 53320, relative_alt : 128, vx : -4, vy : 2, vz : -2, hdg : 17509}
1556200246.164017 GLOBAL_POSITION_INT {time_boot_ms : 15650656, lat : 535040008, lon : 492214251, alt : 53470, relative_alt : 277, vx : -2, vy : 2, vz : -2, hdg : 16680}
1556200253.163396 GLOBAL_POSITION_INT {time_boot_ms : 15657656, lat : 535040022, lon : 492214278, alt : 53300, relative_alt : 105, vx : -2, vy : 4, vz : -5, hdg : 16168}
1556200261.162542 GLOBAL_POSITION_INT {time_boot_ms : 15665656, lat : 535040043, lon : 492214307, alt : 53360, relative_alt : 37, vx : -1, vy : 2, vz : -1, hdg : 15795}
1556200269.161781 GLOBAL_POSITION_INT {time_boot_ms : 15673656, lat : 535040069, lon : 492214331, alt : 53290, relative_alt : -9, vx : -1, vy : 3, vz : 0, hdg : 15767}
1556200277.160864 GLOBAL_POSITION_INT {time_boot_ms : 15681656, lat : 535040102, lon : 492214338, alt : 53320, relative_alt : 20, vx : 1, vy : 2, vz : 0, hdg : 15994}
1556200284.159956 GLOBAL_POSITION_INT {time_boot_ms : 15688656, lat : 535040118, lon : 492214330, alt : 53260, relative_alt : -1, vx : -2, vy : 2, vz : -4, hdg : 16343}
1556200292.160719 GLOBAL_POSITION_INT {time_boot_ms : 15696656, lat : 535040143, lon : 492214334, alt : 53400, relative_alt : 131, vx : -1, vy : 1, vz : -4, hdg : 16607}
1556200300.159554 GLOBAL_POSITION_INT {time_boot_ms : 15704656, lat : 535040156, lon : 492214344, alt : 53400, relative_alt : 26, vx : -2, vy : 2, vz : 0, hdg : 16747}
1556200308.159285 GLOBAL_POSITION_INT {time_boot_ms : 15712656, lat : 535040161, lon : 492214346, alt : 53210, relative_alt : -169, vx : -1, vy : 3, vz : -3, hdg : 16735}
1556200315.15722 GLOBAL_POSITION_INT {time_boot_ms : 15719656, lat : 535040169, lon : 492214354, alt : 53520, relative_alt : 144, vx : -1, vy : 5, vz : -5, hdg : 16717}
1556200323.1561 GLOBAL_POSITION_INT {time_boot_ms : 15727656, lat : 535040182, lon : 492214362, alt : 53370, relative_alt : 0, vx : -2, vy : 4, vz : -4, hdg : 16483}
1556200331.155389 GLOBAL_POSITION_INT {time_boot_ms : 15735656, lat : 535040192, lon : 492214371, alt : 53510, relative_alt : 136, vx : -3, vy : 4, vz : -3, hdg : 16360}
1556200339.156284 GLOBAL_POSITION_INT {time_boot_ms : 15743656, lat : 535040201, lon : 492214397, alt : 53610, relative_alt : 176, vx : -1, vy : 6, vz : -2, hdg : 16272}
1556200346.158537 GLOBAL_POSITION_INT {time_boot_ms : 15750656, lat : 535040211, lon : 492214417, alt : 53480, relative_alt : 42, vx : -2, vy : 5, vz : -1, hdg : 16329}
1556200354.153168 GLOBAL_POSITION_INT {time_boot_ms : 15758656, lat : 535040212, lon : 492214429, alt : 53360, relative_alt : -77, vx : -2, vy : 6, vz : -1, hdg : 16565}
1556200362.15241 GLOBAL_POSITION_INT {time_boot_ms : 15766656, lat : 535040215, lon : 492214454, alt : 53410, relative_alt : -70, vx : -4, vy : 5, vz : 0, hdg : 17032}
1556200369.161398 GLOBAL_POSITION_INT {time_boot_ms : 15773656, lat : 535040209, lon : 492214483, alt : 53300, relative_alt : -185, vx : -4, vy : 6, vz : 0, hdg : 17472}
1556200377.152096 GLOBAL_POSITION_INT {time_boot_ms : 15781656, lat : 535040194, lon : 492214510, alt : 53430, relative_alt : -51, vx : -6, vy : 2, vz : -3, hdg : 17967}
1556200385.151396 GLOBAL_POSITION_INT {time_boot_ms : 15789656, lat : 535040165, lon : 492214526, alt : 53470, relative_alt : 25, vx : -8, vy : 4, vz : -7, hdg : 18405}
1556200393.149929 GLOBAL_POSITION_INT {time_boot_ms : 15797656, lat : 535040134, lon : 492214544, alt : 53420, relative_alt : 79, vx : -5, vy : 6, vz : -5, hdg : 18625}
1556200400.148739 GLOBAL_POSITION_INT {time_boot_ms : 15804656, lat : 535040121, lon : 492214568, alt : 53410, relative_alt : 61, vx : -5, vy : 5, vz : -1, hdg : 18692}
1556200408.147401 GLOBAL_POSITION_INT {time_boot_ms : 15812656, lat : 535040118, lon : 492214609, alt : 53220, relative_alt : -140, vx : -5, vy : 4, vz : 1, hdg : 18658}
1556200416.148137 GLOBAL_POSITION_INT {time_boot_ms : 15820656, lat : 535040124, lon : 492214649, alt : 53390, relative_alt : 25, vx : -4, vy : 4, vz : -2, hdg : 18750}
1556200424.146303 GLOBAL_POSITION_INT {time_boot_ms : 15828656, lat : 535040121, lon : 492214692, alt : 53260, relative_alt : -163, vx : -5, vy : 5, vz : -3, hdg : 18894}
1556200431.145541 GLOBAL_POSITION_INT {time_boot_ms : 15835655, lat : 535040111, lon : 492214735, alt : 53320, relative_alt : -101, vx : -5, vy : 5, vz : -1, hdg : 18940}
1556200439.146134 GLOBAL_POSITION_INT {time_boot_ms : 15843655, lat : 535040102, lon : 492214776, alt : 53260, relative_alt : -145, vx : -3, vy : 5, vz : -1, hdg : 18854}
1556200447.144055 GLOBAL_POSITION_INT {time_boot_ms : 15851655, lat : 535040099, lon : 492214827, alt : 53360, relative_alt : 50, vx : -6, vy : 8, vz : -2, hdg : 18842}
1556200455.1441 GLOBAL_POSITION_INT {time_boot_ms : 15859655, lat : 535040087, lon : 492214866, alt : 53360, relative_alt : 51, vx : -5, vy : 5, vz : -1, hdg : 18935}
1556200462.142373 GLOBAL_POSITION_INT {time_boot_ms : 15866655, lat : 535040083, lon : 492214899, alt : 53510, relative_alt : 54, vx : -5, vy : 3, vz : -2, hdg : 19101}
1556200470.141681 GLOBAL_POSITION_INT {time_boot_ms : 15874655, lat : 535040077, lon : 492214937, alt : 53320, relative_alt : -131, vx : -5, vy : 4, vz : -2, hdg : 19236}
1556200478.141208 GLOBAL_POSITION_INT {time_boot_ms : 15882655, lat : 535040068, lon : 492214980, alt : 53360, relative_alt : 127, vx : -6, vy : 5, vz : -4, hdg : 19422}
1556200485.141231 GLOBAL_POSITION_INT {time_boot_ms : 15889655, lat : 535040073, lon : 492215024, alt : 53410, relative_alt : 173, vx : -3, vy : 4, vz : -2, hdg : 19505}
1556200493.140834 GLOBAL_POSITION_INT {time_boot_ms : 15897655, lat : 535040063, lon : 492215070, alt : 53510, relative_alt : 246, vx : -7, vy : 4, vz : -4, hdg : 19638}
1556200501.138853 GLOBAL_POSITION_INT {time_boot_ms : 15905656, lat : 535040056, lon : 492215113, alt : 53550, relative_alt : 285, vx : -6, vy : 3, vz : -4, hdg : 19700}
1556200509.138793 GLOBAL_POSITION_INT {time_boot_ms : 15913655, lat : 535040036, lon : 492215138, alt : 53370, relative_alt : -101, vx : -5, vy : 4, vz : 0, hdg : 19780}
1556200516.137422 GLOBAL_POSITION_INT {time_boot_ms : 15920655, lat : 535040034, lon : 492215178, alt : 53460, relative_alt : -18, vx : -5, vy : 1, vz : 1, hdg : 19756}
1556200524.136444 GLOBAL_POSITION_INT {time_boot_ms : 15928656, lat : 535040034, lon : 492215222, alt : 53390, relative_alt : 142, vx : -3, vy : 3, vz : -3, hdg : 19613}
1556200532.13492 GLOBAL_POSITION_INT {time_boot_ms : 15936655, lat : 535040041, lon : 492215265, alt : 53500, relative_alt : 65, vx : -4, vy : 4, vz : -5, hdg : 19399}
1556200540.147123 GLOBAL_POSITION_INT {time_boot_ms : 15944655, lat : 535040044, lon : 492215302, alt : 53280, relative_alt : -153, vx : -3, vy : 1, vz : 0, hdg : 19211}
1556200547.134298 GLOBAL_POSITION_INT {time_boot_ms : 15951655, lat : 535040046, lon : 492215348, alt : 53270, relative_alt : 96, vx : -3, vy : 4, vz : -3, hdg : 19083}
1556200555.145438 GLOBAL_POSITION_INT {time_boot_ms : 15959656, lat : 535040046, lon : 492215375, alt : 53300, relative_alt : 122, vx : -2, vy : 3, vz : -2, hdg : 18894}
1556200563.133668 GLOBAL_POSITION_INT {time_boot_ms : 15967655, lat : 535040052, lon : 492215402, alt : 53350, relative_alt : 176, vx : -2, vy : 3, vz : 0, hdg : 18845}
1556200571.13235 GLOBAL_POSITION_INT {time_boot_ms : 15975655, lat : 535040060, lon : 492215434, alt : 53320, relative_alt : -79, vx : -3, vy : 5, vz : 0, hdg : 18822}
1556200578.130451 GLOBAL_POSITION_INT {time_boot_ms : 15982656, lat : 535040049, lon : 492215442, alt : 53390, relative_alt : -6, vx : -3, vy : 3, vz : -1, hdg : 18771}
1556200586.1304 GLOBAL_POSITION_INT {time_boot_ms : 15990655, lat : 535040031, lon : 492215470, alt : 53390, relative_alt : -8, vx : -4, vy : 5, vz : -1, hdg : 18704}
1556200594.129393 GLOBAL_POSITION_INT {time_boot_ms : 15998655, lat : 535040022, lon : 492215493, alt : 53300, relative_alt : -7, vx : -3, vy : 5, vz : 0, hdg : 18646}
1556200601.129999 GLOBAL_POSITION_INT {time_boot_ms : 16005655, lat : 535040020, lon : 492215522, alt : 53430, relative_alt : 126, vx : -4, vy : 5, vz : 0, hdg : 18834}
1556200609.125303 GLOBAL_POSITION_INT {time_boot_ms : 16013655, lat : 535040014, lon : 492215543, alt : 53290, relative_alt : -11, vx : -3, vy : 5, vz : -2, hdg : 19136}
1556200617.125006 GLOBAL_POSITION_INT {time_boot_ms : 16021655, lat : 535040013, lon : 492215570, alt : 53290, relative_alt : 46, vx : -4, vy : 2, vz : 0, hdg : 19666}
1556200625.127518 GLOBAL_POSITION_INT {time_boot_ms : 16029655, lat : 535040009, lon : 492215608, alt : 53300, relative_alt : 50, vx : -4, vy : 4, vz : 0, hdg : 20355}
1556200632.123186 GLOBAL_POSITION_INT {time_boot_ms : 16036655, lat : 535040006, lon : 492215640, alt : 53480, relative_alt : 130, vx : -3, vy : 2, vz : 0, hdg : 20879}
1556200640.122819 GLOBAL_POSITION_INT {time_boot_ms : 16044656, lat : 535040000, lon : 492215688, alt : 53280, relative_alt : -61, vx : -3, vy : 3, vz : 2, hdg : 21293}
1556200648.121506 GLOBAL_POSITION_INT {time_boot_ms : 16052655, lat : 535039985, lon : 492215720, alt : 53340, relative_alt : 23, vx : -3, vy : 1, vz : 0, hdg : 21500}
1556200656.120641 GLOBAL_POSITION_INT {time_boot_ms : 16060655, lat : 535039975, lon : 492215739, alt : 53500, relative_alt : 182, vx : -4, vy : 2, vz : -1, hdg : 21507}
1556200663.120526 GLOBAL_POSITION_INT {time_boot_ms : 16067655, lat : 535039972, lon : 492215766, alt : 53630, relative_alt : 311, vx : -1, vy : 3, vz : -5, hdg : 21349}
1556200671.123179 GLOBAL_POSITION_INT {time_boot_ms : 16075655, lat : 535039988, lon : 492215806, alt : 53200, relative_alt : -389, vx : -2, vy : 4, vz : 0, hdg : 21037}
1556200679.122208 GLOBAL_POSITION_INT {time_boot_ms : 16083655, lat : 535039998, lon : 492215843, alt : 53260, relative_alt : 64, vx : -4, vy : 3, vz : -1, hdg : 20840}
1556200687.12087 GLOBAL_POSITION_INT {time_boot_ms : 16091655, lat : 535039998, lon : 492215871, alt : 53290, relative_alt : 92, vx : -1, vy : 0, vz : 0, hdg : 20640}
1556200694.1208 GLOBAL_POSITION_INT {time_boot_ms : 16098655, lat : 535040005, lon : 492215894, alt : 53370, relative_alt : 174, vx : -3, vy : 1, vz : -3, hdg : 20529}
1556200702.128504 GLOBAL_POSITION_INT {time_boot_ms : 16106655, lat : 535040009, lon : 492215920, alt : 53280, relative_alt : 25, vx : -2, vy : 2, vz : -1, hdg : 20539}
1556200710.119169 GLOBAL_POSITION_INT {time_boot_ms : 16114655, lat : 535040004, lon : 492215933, alt : 53200, relative_alt : -55, vx : -3, vy : 0, vz : 1, hdg : 20473}
1556200717.11853 GLOBAL_POSITION_INT {time_boot_ms : 16121655, lat : 535040011, lon : 492215949, alt : 53250, relative_alt : -4, vx : -1, vy : 0, vz : -3, hdg : 20464}
1556200725.117853 GLOBAL_POSITION_INT {time_boot_ms : 16129655, lat : 535040005, lon : 492215955, alt : 53160, relative_alt : -90, vx : -2, vy : 2, vz : 0, hdg : 20522}
1556200733.116414 GLOBAL_POSITION_INT {time_boot_ms : 16137655, lat : 535040014, lon : 492215981, alt : 53330, relative_alt : 72, vx : -2, vy : 0, vz : -3, hdg : 20626}
1556200741.116175 GLOBAL_POSITION_INT {time_boot_ms : 16145655, lat : 535040014, lon : 492215998, alt : 53390, relative_alt : 36, vx : -2, vy : 0, vz : 0, hdg : 20995}
1556200748.112272 GLOBAL_POSITION_INT {time_boot_ms : 16152655, lat : 535040014, lon : 492216009, alt : 53390, relative_alt : 33, vx : -3, vy : 2, vz : -1, hdg : 21214}
1556200756.116056 GLOBAL_POSITION_INT {time_boot_ms : 16160655, lat : 535040017, lon : 492216026, alt : 53490, relative_alt : 134, vx : -3, vy : 0, vz : -1, hdg : 21361}
1556200764.11366 GLOBAL_POSITION_INT {time_boot_ms : 16168655, lat : 535040017, lon : 492216043, alt : 53460, relative_alt : 100, vx : -1, vy : 2, vz : -3, hdg : 21311}
1556200772.113254 GLOBAL_POSITION_INT {time_boot_ms : 16176655, lat : 535040019, lon : 492216064, alt : 53330, relative_alt : -22, vx : -3, vy : 0, vz : 3, hdg : 21231}
1556200779.112032 GLOBAL_POSITION_INT {time_boot_ms : 16183655, lat : 535040014, lon : 492216079, alt : 53250, relative_alt : 60, vx : -1, vy : 0, vz : -1, hdg : 21246}
1556200787.111192 GLOBAL_POSITION_INT {time_boot_ms : 16191655, lat : 535040014, lon : 492216096, alt : 53320, relative_alt : 137, vx : 0, vy : 0, vz : 0, hdg : 21203}
1556200795.110989 GLOBAL_POSITION_INT {time_boot_ms : 16199655, lat : 535040027, lon : 492216109, alt : 53100, relative_alt : -88, vx : -1, vy : 0, vz : 1, hdg : 21241}
1556200803.109492 GLOBAL_POSITION_INT {time_boot_ms : 16207655, lat : 535040036, lon : 492216128, alt : 53250, relative_alt : 67, vx : 0, vy : 1, vz : 0, hdg : 21414}
1556200810.109546 GLOBAL_POSITION_INT {time_boot_ms : 16214655, lat : 535040046, lon : 492216141, alt : 53450, relative_alt : 118, vx : 1, vy : -1, vz : -2, hdg : 21771}
1556200818.107962 GLOBAL_POSITION_INT {time_boot_ms : 16222655, lat : 535040056, lon : 492216149, alt : 53280, relative_alt : -51, vx : -3, vy : 0, vz : -1, hdg : 22142}
1556200826.107284 GLOBAL_POSITION_INT {time_boot_ms : 16230655, lat : 535040064, lon : 492216153, alt : 53410, relative_alt : 78, vx : -1, vy : 0, vz : -2, hdg : 22665}
1556200833.105804 GLOBAL_POSITION_INT {time_boot_ms : 16237655, lat : 535040056, lon : 492216145, alt : 53360, relative_alt : 26, vx : -4, vy : 0, vz : -3, hdg : 23189}
1556200841.105859 GLOBAL_POSITION_INT {time_boot_ms : 16245655, lat : 535040053, lon : 492216135, alt : 53330, relative_alt : -7, vx : -2, vy : 0, vz : -3, hdg : 23731}
1556200849.114025 GLOBAL_POSITION_INT {time_boot_ms : 16253655, lat : 535040049, lon : 492216112, alt : 53330, relative_alt : -9, vx : -2, vy : -2, vz : -1, hdg : 24549}
1556200857.109173 GLOBAL_POSITION_INT {time_boot_ms : 16261655, lat : 535040024, lon : 492216072, alt : 53220, relative_alt : -118, vx : -2, vy : -2, vz : 0, hdg : 25713}
1556200864.109319 GLOBAL_POSITION_INT {time_boot_ms : 16268655, lat : 535040020, lon : 492216062, alt : 53340, relative_alt : -20, vx : 0, vy : -3, vz : 1, hdg : 26626}
1556200872.109457 GLOBAL_POSITION_INT {time_boot_ms : 16276655, lat : 535040016, lon : 492216035, alt : 53370, relative_alt : 8, vx : 0, vy : -4, vz : -1, hdg : 27258}
1556200880.110811 GLOBAL_POSITION_INT {time_boot_ms : 16284655, lat : 535040026, lon : 492216009, alt : 53290, relative_alt : -74, vx : 2, vy : -2, vz : 0, hdg : 27630}
1556200888.108009 GLOBAL_POSITION_INT {time_boot_ms : 16292655, lat : 535040028, lon : 492215987, alt : 53290, relative_alt : 19, vx : -1, vy : -3, vz : 4, hdg : 27627}
1556200895.105947 GLOBAL_POSITION_INT {time_boot_ms : 16299655, lat : 535040045, lon : 492215965, alt : 53420, relative_alt : 148, vx : 2, vy : -3, vz : -2, hdg : 27524}
1556200903.096949 GLOBAL_POSITION_INT {time_boot_ms : 16307655, lat : 535040053, lon : 492215937, alt : 53330, relative_alt : 57, vx : 0, vy : -3, vz : 0, hdg : 27556}
1556200911.098917 GLOBAL_POSITION_INT {time_boot_ms : 16315655, lat : 535040054, lon : 492215896, alt : 53620, relative_alt : 448, vx : -5, vy : -8, vz : -7, hdg : 27766}
1556200919.098762 GLOBAL_POSITION_INT {time_boot_ms : 16323655, lat : 535039666, lon : 492215375, alt : 53920, relative_alt : 740, vx : -129, vy : -81, vz : 2, hdg : 26118}
1556200926.098247 GLOBAL_POSITION_INT {time_boot_ms : 16330655, lat : 535039705, lon : 492214335, alt : 53580, relative_alt : 401, vx : 90, vy : -65, vz : 3, hdg : 35071}
1556200934.096045 GLOBAL_POSITION_INT {time_boot_ms : 16338655, lat : 535040700, lon : 492214464, alt : 53765, relative_alt : 591, vx : 150, vy : 15, vz : -1, hdg : 2911}
1556200942.096549 GLOBAL_POSITION_INT {time_boot_ms : 16346655, lat : 535041715, lon : 492214602, alt : 53600, relative_alt : 420, vx : 136, vy : 0, vz : 3, hdg : 2319}
1556200949.095721 GLOBAL_POSITION_INT {time_boot_ms : 16353655, lat : 535042509, lon : 492215089, alt : 53610, relative_alt : 435, vx : 131, vy : 58, vz : 0, hdg : 4758}
1556200957.095005 GLOBAL_POSITION_INT {time_boot_ms : 16361655, lat : 535043439, lon : 492215682, alt : 53680, relative_alt : 503, vx : 131, vy : 41, vz : -1, hdg : 4097}
1556200965.095045 GLOBAL_POSITION_INT {time_boot_ms : 16369655, lat : 535044419, lon : 492216029, alt : 53680, relative_alt : 508, vx : 132, vy : 20, vz : 0, hdg : 3281}
1556200973.091241 GLOBAL_POSITION_INT {time_boot_ms : 16377655, lat : 535045439, lon : 492216181, alt : 53640, relative_alt : 467, vx : 138, vy : 0, vz : 0, hdg : 2526}
1556200980.090744 GLOBAL_POSITION_INT {time_boot_ms : 16384655, lat : 535046306, lon : 492216158, alt : 53710, relative_alt : 535, vx : 103, vy : 23, vz : 0, hdg : 3667}
1556200988.089715 GLOBAL_POSITION_INT {time_boot_ms : 16392655, lat : 535047184, lon : 492216922, alt : 53870, relative_alt : 691, vx : 125, vy : 61, vz : -2, hdg : 5096}
1556200996.091092 GLOBAL_POSITION_INT {time_boot_ms : 16400655, lat : 535048113, lon : 492217499, alt : 53850, relative_alt : 676, vx : 128, vy : 37, vz : -2, hdg : 4377}
1556201004.090228 GLOBAL_POSITION_INT {time_boot_ms : 16408655, lat : 535049092, lon : 492217820, alt : 53685, relative_alt : 508, vx : 135, vy : 17, vz : 0, hdg : 3531}
1556201011.089644 GLOBAL_POSITION_INT {time_boot_ms : 16415655, lat : 535049968, lon : 492217927, alt : 53850, relative_alt : 675, vx : 134, vy : 3, vz : -1, hdg : 2933}
1556201019.085769 GLOBAL_POSITION_INT {time_boot_ms : 16423655, lat : 535050990, lon : 492217823, alt : 53780, relative_alt : 606, vx : 136, vy : -17, vz : 0, hdg : 2243}
1556201027.08932 GLOBAL_POSITION_INT {time_boot_ms : 16431655, lat : 535052007, lon : 492217497, alt : 53650, relative_alt : 479, vx : 133, vy : -33, vz : 1, hdg : 1759}
1556201035.086696 GLOBAL_POSITION_INT {time_boot_ms : 16439655, lat : 535052916, lon : 492217575, alt : 53810, relative_alt : 638, vx : 114, vy : 81, vz : 0, hdg : 6245}
1556201042.152965 GLOBAL_POSITION_INT {time_boot_ms : 16446655, lat : 535053695, lon : 492218260, alt : 53830, relative_alt : 657, vx : 122, vy : 57, vz : -2, hdg : 5584}
1556201050.095502 GLOBAL_POSITION_INT {time_boot_ms : 16454655, lat : 535054539, lon : 492218979, alt : 53650, relative_alt : 471, vx : 104, vy : 79, vz : 2, hdg : 6662}
1556201058.083514 GLOBAL_POSITION_INT {time_boot_ms : 16462655, lat : 535055385, lon : 492219850, alt : 53720, relative_alt : 549, vx : 116, vy : 65, vz : -1, hdg : 6152}
1556201065.081931 GLOBAL_POSITION_INT {time_boot_ms : 16469655, lat : 535056182, lon : 492220419, alt : 53820, relative_alt : 647, vx : 124, vy : 48, vz : 0, hdg : 5412}
1556201073.085279 GLOBAL_POSITION_INT {time_boot_ms : 16477655, lat : 535057155, lon : 492220826, alt : 53760, relative_alt : 583, vx : 131, vy : 19, vz : 0, hdg : 4548}
1556201081.081095 GLOBAL_POSITION_INT {time_boot_ms : 16485655, lat : 535058151, lon : 492220983, alt : 53810, relative_alt : 631, vx : 132, vy : 0, vz : 1, hdg : 3725}
1556201089.081661 GLOBAL_POSITION_INT {time_boot_ms : 16493655, lat : 535059017, lon : 492221578, alt : 53790, relative_alt : 612, vx : 123, vy : 88, vz : 0, hdg : 6947}
1556201096.078655 GLOBAL_POSITION_INT {time_boot_ms : 16500655, lat : 535059563, lon : 492222511, alt : 53920, relative_alt : 749, vx : 20, vy : 100, vz : 1, hdg : 11351}
1556201104.078019 GLOBAL_POSITION_INT {time_boot_ms : 16508655, lat : 535059649, lon : 492224197, alt : 53880, relative_alt : 707, vx : 20, vy : 132, vz : 0, hdg : 11913}
1556201112.078443 GLOBAL_POSITION_INT {time_boot_ms : 16516655, lat : 535059871, lon : 492225877, alt : 53830, relative_alt : 654, vx : 36, vy : 127, vz : 1, hdg : 11160}
1556201120.076101 GLOBAL_POSITION_INT {time_boot_ms : 16524655, lat : 535060261, lon : 492227458, alt : 53710, relative_alt : 530, vx : 61, vy : 111, vz : 2, hdg : 10277}
1556201127.075734 GLOBAL_POSITION_INT {time_boot_ms : 16531655, lat : 535060695, lon : 492228722, alt : 53720, relative_alt : 540, vx : 75, vy : 107, vz : 2, hdg : 9681}
1556201135.074374 GLOBAL_POSITION_INT {time_boot_ms : 16539655, lat : 535061317, lon : 492230015, alt : 53820, relative_alt : 646, vx : 94, vy : 94, vz : -1, hdg : 8897}
1556201143.074661 GLOBAL_POSITION_INT {time_boot_ms : 16547655, lat : 535061497, lon : 492231525, alt : 54000, relative_alt : 824, vx : 4, vy : 154, vz : -2, hdg : 12740}
1556201151.082733 GLOBAL_POSITION_INT {time_boot_ms : 16555655, lat : 535061705, lon : 492233142, alt : 53960, relative_alt : 780, vx : 54, vy : 117, vz : 0, hdg : 10908}
1556201158.081822 GLOBAL_POSITION_INT {time_boot_ms : 16562655, lat : 535062057, lon : 492234481, alt : 54040, relative_alt : 860, vx : 55, vy : 117, vz : 1, hdg : 11039}
1556201166.091537 GLOBAL_POSITION_INT {time_boot_ms : 16570655, lat : 535062435, lon : 492236009, alt : 53990, relative_alt : 816, vx : 51, vy : 115, vz : 2, hdg : 11246}
1556201174.0801 GLOBAL_POSITION_INT {time_boot_ms : 16578655, lat : 535062794, lon : 492237537, alt : 54000, relative_alt : 827, vx : 46, vy : 117, vz : 2, hdg : 11469}
1556201181.079539 GLOBAL_POSITION_INT {time_boot_ms : 16585655, lat : 535063115, lon : 492238892, alt : 54080, relative_alt : 908, vx : 50, vy : 121, vz : 1, hdg : 11464}
1556201189.089451 GLOBAL_POSITION_INT {time_boot_ms : 16593655, lat : 535063488, lon : 492240435, alt : 54120, relative_alt : 945, vx : 51, vy : 122, vz : 0, hdg : 11714}
1556201197.078349 GLOBAL_POSITION_INT {time_boot_ms : 16601655, lat : 535063862, lon : 492241979, alt : 54160, relative_alt : 989, vx : 53, vy : 114, vz : 0, hdg : 11935}
1556201205.076729 GLOBAL_POSITION_INT {time_boot_ms : 16609655, lat : 535064232, lon : 492243507, alt : 54170, relative_alt : 995, vx : 48, vy : 111, vz : 1, hdg : 12168}
1556201212.086957 GLOBAL_POSITION_INT {time_boot_ms : 16616655, lat : 535064555, lon : 492244876, alt : 54170, relative_alt : 997, vx : 49, vy : 124, vz : 1, hdg : 12305}
1556201220.075343 GLOBAL_POSITION_INT {time_boot_ms : 16624655, lat : 535064928, lon : 492246436, alt : 54260, relative_alt : 1087, vx : 52, vy : 120, vz : -1, hdg : 12407}
1556201228.075661 GLOBAL_POSITION_INT {time_boot_ms : 16632655, lat : 535065305, lon : 492247990, alt : 54190, relative_alt : 1011, vx : 59, vy : 118, vz : 2, hdg : 12492}
1556201236.073281 GLOBAL_POSITION_INT {time_boot_ms : 16640655, lat : 535065676, lon : 492249522, alt : 54260, relative_alt : 1087, vx : 49, vy : 115, vz : 0, hdg : 12928}
1556201243.073601 GLOBAL_POSITION_INT {time_boot_ms : 16647655, lat : 535066007, lon : 492250886, alt : 54300, relative_alt : 1126, vx : 56, vy : 119, vz : 0, hdg : 12939}
1556201251.072526 GLOBAL_POSITION_INT {time_boot_ms : 16655655, lat : 535066385, lon : 492252441, alt : 54430, relative_alt : 1250, vx : 56, vy : 113, vz : 2, hdg : 13229}
1556201259.081662 GLOBAL_POSITION_INT {time_boot_ms : 16663655, lat : 535066757, lon : 492254014, alt : 54300, relative_alt : 1125, vx : 47, vy : 119, vz : 2, hdg : 13528}
1556201267.070493 GLOBAL_POSITION_INT {time_boot_ms : 16671655, lat : 535067130, lon : 492255584, alt : 54450, relative_alt : 1273, vx : 52, vy : 128, vz : 0, hdg : 13461}
1556201274.068117 GLOBAL_POSITION_INT {time_boot_ms : 16678655, lat : 535067456, lon : 492256948, alt : 54530, relative_alt : 1357, vx : 51, vy : 127, vz : 0, hdg : 13643}
1556201282.137637 GLOBAL_POSITION_INT {time_boot_ms : 16686655, lat : 535067826, lon : 492258504, alt : 54460, relative_alt : 1282, vx : 49, vy : 131, vz : 0, hdg : 13799}
1556201290.067211 GLOBAL_POSITION_INT {time_boot_ms : 16694655, lat : 535068204, lon : 492260061, alt : 54530, relative_alt : 1351, vx : 56, vy : 131, vz : 0, hdg : 13944}
1556201297.064880 GLOBAL_POSITION_INT {time_boot_ms : 16701655, lat : 535068533, lon : 492261409, alt : 54630, relative_alt : 1453, vx : 50, vy : 120, vz : 0, hdg : 14262}
1556201305.071540 GLOBAL_POSITION_INT {time_boot_ms : 16709655, lat : 535068909, lon : 492262961, alt : 54585, relative_alt : 1410, vx : 52, vy : 122, vz : 1, hdg : 14387}
1556201313.061388 GLOBAL_POSITION_INT {time_boot_ms : 16717655, lat : 535069286, lon : 492264539, alt : 54690, relative_alt : 1513, vx : 60, vy : 124, vz : 1, hdg : 14399}
1556201321.063362 GLOBAL_POSITION_INT {time_boot_ms : 16725655, lat : 535069666, lon : 492266075, alt : 54680, relative_alt : 1503, vx : 69, vy : 107, vz : -1, hdg : 14811}
1556201328.061869 GLOBAL_POSITION_INT {time_boot_ms : 16732655, lat : 535069914, lon : 492267148, alt : 54840, relative_alt : 1664, vx : 51, vy : 96, vz : 0, hdg : 14095}
1556201336.059753 GLOBAL_POSITION_INT {time_boot_ms : 16740655, lat : 535070280, lon : 492268623, alt : 54940, relative_alt : 1767, vx : 56, vy : 135, vz : 1, hdg : 14979}
1556201344.061046 GLOBAL_POSITION_INT {time_boot_ms : 16748655, lat : 535070641, lon : 492270197, alt : 54780, relative_alt : 1606, vx : 54, vy : 126, vz : 2, hdg : 14912}
1556201352.058098 GLOBAL_POSITION_INT {time_boot_ms : 16756655, lat : 535071021, lon : 492271746, alt : 54740, relative_alt : 1566, vx : 53, vy : 122, vz : 1, hdg : 15152}
1556201359.058614 GLOBAL_POSITION_INT {time_boot_ms : 16763655, lat : 535071374, lon : 492273101, alt : 54700, relative_alt : 1523, vx : 65, vy : 118, vz : 3, hdg : 15029}
1556201367.054619 GLOBAL_POSITION_INT {time_boot_ms : 16771655, lat : 535071758, lon : 492274535, alt : 54960, relative_alt : 1780, vx : 45, vy : 110, vz : -2, hdg : 15411}
1556201375.057147 GLOBAL_POSITION_INT {time_boot_ms : 16779655, lat : 535072197, lon : 492275886, alt : 54920, relative_alt : 1740, vx : 83, vy : 92, vz : 2, hdg : 13848}
1556201383.056367 GLOBAL_POSITION_INT {time_boot_ms : 16787655, lat : 535072850, lon : 492276393, alt : 55050, relative_alt : 1879, vx : 119, vy : -16, vz : -2, hdg : 8370}
1556201390.055528 GLOBAL_POSITION_INT {time_boot_ms : 16794655, lat : 535073211, lon : 492275623, alt : 55170, relative_alt : 1995, vx : -11, vy : -140, vz : -4, hdg : 35823}
1556201398.054227 GLOBAL_POSITION_INT {time_boot_ms : 16802655, lat : 535073081, lon : 492274363, alt : 55160, relative_alt : 1984, vx : -1, vy : -104, vz : 1, hdg : 1}
1556201406.066209 GLOBAL_POSITION_INT {time_boot_ms : 16810655, lat : 535073736, lon : 492273744, alt : 55020, relative_alt : 1844, vx : 110, vy : 9, vz : 0, hdg : 9544}
1556201413.053825 GLOBAL_POSITION_INT {time_boot_ms : 16817655, lat : 535074075, lon : 492274642, alt : 55220, relative_alt : 2048, vx : -1, vy : 109, vz : -1, hdg : 17123}
1556201421.050545 GLOBAL_POSITION_INT {time_boot_ms : 16825655, lat : 535073635, lon : 492276137, alt : 55200, relative_alt : 2025, vx : -58, vy : 136, vz : 3, hdg : 18960}
1556201429.049912 GLOBAL_POSITION_INT {time_boot_ms : 16833655, lat : 535073214, lon : 492277642, alt : 54920, relative_alt : 1745, vx : -58, vy : 125, vz : 4, hdg : 19169}
1556201437.050308 GLOBAL_POSITION_INT {time_boot_ms : 16841655, lat : 535072892, lon : 492279224, alt : 54980, relative_alt : 1806, vx : -4, vy : 159, vz : -1, hdg : 16036}
1556201444.04933 GLOBAL_POSITION_INT {time_boot_ms : 16848655, lat : 535073124, lon : 492280543, alt : 54980, relative_alt : 1809, vx : 43, vy : 129, vz : 0, hdg : 14521}
1556201452.047868 GLOBAL_POSITION_INT {time_boot_ms : 16856655, lat : 535073736, lon : 492280812, alt : 55180, relative_alt : 2003, vx : 75, vy : -135, vz : 1, hdg : 1111}
1556201460.046334 GLOBAL_POSITION_INT {time_boot_ms : 16864655, lat : 535073399, lon : 492279861, alt : 55370, relative_alt : 2190, vx : -83, vy : -36, vz : 1, hdg : 27946}
1556201468.046361 GLOBAL_POSITION_INT {time_boot_ms : 16872655, lat : 535072866, lon : 492278827, alt : 55330, relative_alt : 2159, vx : -49, vy : -91, vz : 3, hdg : 30177}
1556201475.046697 GLOBAL_POSITION_INT {time_boot_ms : 16879655, lat : 535072674, lon : 492277828, alt : 55320, relative_alt : 2141, vx : -20, vy : -87, vz : 0, hdg : 31536}
1556201483.044751 GLOBAL_POSITION_INT {time_boot_ms : 16887655, lat : 535072531, lon : 492276877, alt : 55340, relative_alt : 2164, vx : -22, vy : -73, vz : 0, hdg : 31415}
1556201491.056118 GLOBAL_POSITION_INT {time_boot_ms : 16895655, lat : 535072363, lon : 492275888, alt : 55540, relative_alt : 2369, vx : -24, vy : -80, vz : 0, hdg : 31480}
1556201499.041022 GLOBAL_POSITION_INT {time_boot_ms : 16903655, lat : 535072168, lon : 492274859, alt : 55380, relative_alt : 2201, vx : -25, vy : -84, vz : 7, hdg : 31687}
1556201506.038949 GLOBAL_POSITION_INT {time_boot_ms : 16910655, lat : 535072005, lon : 492273904, alt : 55400, relative_alt : 2225, vx : -25, vy : -88, vz : 2, hdg : 31804}
1556201514.038898 GLOBAL_POSITION_INT {time_boot_ms : 16918655, lat : 535071803, lon : 492272790, alt : 55290, relative_alt : 2115, vx : -29, vy : -89, vz : 0, hdg : 31851}
1556201522.109588 GLOBAL_POSITION_INT {time_boot_ms : 16926655, lat : 535071595, lon : 492271627, alt : 55180, relative_alt : 2007, vx : -31, vy : -94, vz : 2, hdg : 31989}
1556201529.036242 GLOBAL_POSITION_INT {time_boot_ms : 16933655, lat : 535071401, lon : 492270563, alt : 55230, relative_alt : 2050, vx : -29, vy : -101, vz : 9, hdg : 32230}
1556201537.036336 GLOBAL_POSITION_INT {time_boot_ms : 16941655, lat : 535071173, lon : 492269260, alt : 54980, relative_alt : 1804, vx : -34, vy : -105, vz : -2, hdg : 32337}
1556201545.035233 GLOBAL_POSITION_INT {time_boot_ms : 16949655, lat : 535070915, lon : 492267855, alt : 55030, relative_alt : 1853, vx : -36, vy : -115, vz : 4, hdg : 32503}
1556201553.034218 GLOBAL_POSITION_INT {time_boot_ms : 16957655, lat : 535070635, lon : 492266313, alt : 55030, relative_alt : 1855, vx : -45, vy : -123, vz : -5, hdg : 32666}
1556201560.041692 GLOBAL_POSITION_INT {time_boot_ms : 16964655, lat : 535070391, lon : 492264908, alt : 54920, relative_alt : 1742, vx : -44, vy : -128, vz : 1, hdg : 32784}
1556201568.033536 GLOBAL_POSITION_INT {time_boot_ms : 16972655, lat : 535070099, lon : 492263292, alt : 54760, relative_alt : 1581, vx : -43, vy : -127, vz : 0, hdg : 32970}
1556201576.03305 GLOBAL_POSITION_INT {time_boot_ms : 16980655, lat : 535069807, lon : 492261675, alt : 54800, relative_alt : 1629, vx : -39, vy : -128, vz : 2, hdg : 33199}
1556201584.031965 GLOBAL_POSITION_INT {time_boot_ms : 16988655, lat : 535069514, lon : 492260049, alt : 54700, relative_alt : 1520, vx : -38, vy : -131, vz : 2, hdg : 33400}
1556201591.031171 GLOBAL_POSITION_INT {time_boot_ms : 16995655, lat : 535069267, lon : 492258645, alt : 54720, relative_alt : 1549, vx : -28, vy : -121, vz : 0, hdg : 34189}
1556201599.031324 GLOBAL_POSITION_INT {time_boot_ms : 17003655, lat : 535069167, lon : 492256973, alt : 54750, relative_alt : 1575, vx : -10, vy : -135, vz : 0, hdg : 34879}
1556201607.029854 GLOBAL_POSITION_INT {time_boot_ms : 17011655, lat : 535069107, lon : 492255309, alt : 54810, relative_alt : 1630, vx : -14, vy : -133, vz : 0, hdg : 34986}
1556201615.028013 GLOBAL_POSITION_INT {time_boot_ms : 17019656, lat : 535069042, lon : 492253645, alt : 54640, relative_alt : 1460, vx : -8, vy : -137, vz : 3, hdg : 35196}
1556201622.027174 GLOBAL_POSITION_INT {time_boot_ms : 17026655, lat : 535068925, lon : 492252238, alt : 54860, relative_alt : 1685, vx : -29, vy : -124, vz : -1, hdg : 34665}
1556201630.026272 GLOBAL_POSITION_INT {time_boot_ms : 17034655, lat : 535068614, lon : 492250961, alt : 54910, relative_alt : 1731, vx : -69, vy : -77, vz : 0, hdg : 32622}
1556201638.023744 GLOBAL_POSITION_INT {time_boot_ms : 17042655, lat : 535068029, lon : 492250202, alt : 55050, relative_alt : 1879, vx : -102, vy : -32, vz : 3, hdg : 28675}
1556201645.023957 GLOBAL_POSITION_INT {time_boot_ms : 17049655, lat : 535067385, lon : 492250237, alt : 55240, relative_alt : 2069, vx : -85, vy : 45, vz : -1, hdg : 24873}
1556201653.023423 GLOBAL_POSITION_INT {time_boot_ms : 17057655, lat : 535067007, lon : 492251181, alt : 55210, relative_alt : 2037, vx : -2, vy : 120, vz : 1, hdg : 17796}
1556201661.022286 GLOBAL_POSITION_INT {time_boot_ms : 17065655, lat : 535067332, lon : 492252277, alt : 55310, relative_alt : 2137, vx : 153, vy : 24, vz : -1, hdg : 8775}
1556201669.023573 GLOBAL_POSITION_INT {time_boot_ms : 17073655, lat : 535067882, lon : 492251316, alt : 55250, relative_alt : 2070, vx : 11, vy : -125, vz : 2, hdg : 697}
1556201676.021758 GLOBAL_POSITION_INT {time_boot_ms : 17080655, lat : 535068219, lon : 492250199, alt : 55130, relative_alt : 1950, vx : 68, vy : -109, vz : 3, hdg : 1284}
1556201684.021835 GLOBAL_POSITION_INT {time_boot_ms : 17088655, lat : 535068748, lon : 492248860, alt : 55020, relative_alt : 1849, vx : 33, vy : -138, vz : 6, hdg : 34653}
1556201692.021226 GLOBAL_POSITION_INT {time_boot_ms : 17096655, lat : 535068790, lon : 492247397, alt : 55170, relative_alt : 1991, vx : -10, vy : -129, vz : -3, hdg : 33400}
1556201700.554055 GLOBAL_POSITION_INT {time_boot_ms : 17105155, lat : 535068710, lon : 492245792, alt : 55170, relative_alt : 1994, vx : -11, vy : -118, vz : 1, hdg : 33471}
1556201707.019262 GLOBAL_POSITION_INT {time_boot_ms : 17111655, lat : 535068655, lon : 492244560, alt : 55240, relative_alt : 2069, vx : -9, vy : -120, vz : 0, hdg : 33715}
1556201715.016768 GLOBAL_POSITION_INT {time_boot_ms : 17119655, lat : 535068592, lon : 492243043, alt : 55450, relative_alt : 2277, vx : -9, vy : -120, vz : 1, hdg : 33908}
1556201723.013573 GLOBAL_POSITION_INT {time_boot_ms : 17127655, lat : 535068542, lon : 492241449, alt : 55330, relative_alt : 2152, vx : -11, vy : -128, vz : 0, hdg : 33852}
1556201731.016279 GLOBAL_POSITION_INT {time_boot_ms : 17135655, lat : 535068468, lon : 492239815, alt : 55430, relative_alt : 2250, vx : -10, vy : -133, vz : 2, hdg : 34069}
1556201738.015534 GLOBAL_POSITION_INT {time_boot_ms : 17142655, lat : 535068407, lon : 492238325, alt : 55220, relative_alt : 2048, vx : -11, vy : -137, vz : 5, hdg : 34190}
1556201746.0143 GLOBAL_POSITION_INT {time_boot_ms : 17150656, lat : 535068345, lon : 492236633, alt : 55220, relative_alt : 2044, vx : -9, vy : -136, vz : 3, hdg : 34209}
1556201754.012766 GLOBAL_POSITION_INT {time_boot_ms : 17158655, lat : 535068273, lon : 492234949, alt : 55110, relative_alt : 1934, vx : -11, vy : -138, vz : 5, hdg : 34311}
1556201761.011157 GLOBAL_POSITION_INT {time_boot_ms : 17165655, lat : 535068256, lon : 492233505, alt : 55190, relative_alt : 2018, vx : 14, vy : -128, vz : 0, hdg : 35512}
1556201769.01253 GLOBAL_POSITION_INT {time_boot_ms : 17173655, lat : 535068424, lon : 492231850, alt : 55240, relative_alt : 2069, vx : 26, vy : -136, vz : -8, hdg : 25}
1556201777.004615 GLOBAL_POSITION_INT {time_boot_ms : 17181655, lat : 535068610, lon : 492230200, alt : 55290, relative_alt : 2114, vx : 20, vy : -135, vz : 8, hdg : 174}
1556201785.019607 GLOBAL_POSITION_INT {time_boot_ms : 17189656, lat : 535068670, lon : 492229100, alt : 55460, relative_alt : 2280, vx : -5, vy : -115, vz : -3, hdg : 33383}
1556201792.009081 GLOBAL_POSITION_INT {time_boot_ms : 17196655, lat : 535068892, lon : 492227732, alt : 55390, relative_alt : 2215, vx : 45, vy : -157, vz : 1, hdg : 34731}
1556201800.007555 GLOBAL_POSITION_INT {time_boot_ms : 17204655, lat : 535069050, lon : 492226352, alt : 55460, relative_alt : 2282, vx : 23, vy : -106, vz : 0, hdg : 34569}
1556201808.506038 GLOBAL_POSITION_INT {time_boot_ms : 17213155, lat : 535069189, lon : 492225013, alt : 55505, relative_alt : 2330, vx : 4, vy : -96, vz : 1, hdg : 34578}
1556201816.000178 GLOBAL_POSITION_INT {time_boot_ms : 17220655, lat : 535069234, lon : 492224533, alt : 55740, relative_alt : 2569, vx : 8, vy : -14, vz : -2, hdg : 34456}
1556201823.000409 GLOBAL_POSITION_INT {time_boot_ms : 17227655, lat : 535069244, lon : 492224365, alt : 55870, relative_alt : 2696, vx : 1, vy : -8, vz : 2, hdg : 34355}
1556201831.998524 GLOBAL_POSITION_INT {time_boot_ms : 17236655, lat : 535069224, lon : 492223927, alt : 55630, relative_alt : 2450, vx : -50, vy : 98, vz : 3, hdg : 31776}
1556201839.995211 GLOBAL_POSITION_INT {time_boot_ms : 17244655, lat : 535069198, lon : 492225049, alt : 55350, relative_alt : 2170, vx : -8, vy : 88, vz : 4, hdg : 32045}
1556201847.995103 GLOBAL_POSITION_INT {time_boot_ms : 17252655, lat : 535069069, lon : 492226077, alt : 55490, relative_alt : 2310, vx : 0, vy : 67, vz : -2, hdg : 32705}
1556201854.994916 GLOBAL_POSITION_INT {time_boot_ms : 17259655, lat : 535069006, lon : 492226354, alt : 55650, relative_alt : 2471, vx : -12, vy : 11, vz : -1, hdg : 33611}
1556201862.992493 GLOBAL_POSITION_INT {time_boot_ms : 17267655, lat : 535068988, lon : 492226467, alt : 55880, relative_alt : 2704, vx : -3, vy : 5, vz : 0, hdg : 34287}
1556201870.994267 GLOBAL_POSITION_INT {time_boot_ms : 17275655, lat : 535068969, lon : 492226534, alt : 55850, relative_alt : 2672, vx : -1, vy : 1, vz : 1, hdg : 35200}
1556201877.001844 GLOBAL_POSITION_INT {time_boot_ms : 17281655, lat : 535068958, lon : 492226555, alt : 55760, relative_alt : 2583, vx : 0, vy : 0, vz : 1, hdg : 35921}
1556201885.989771 GLOBAL_POSITION_INT {time_boot_ms : 17290655, lat : 535068925, lon : 492226567, alt : 55990, relative_alt : 2817, vx : 0, vy : 0, vz : 0, hdg : 776}
1556201893.989775 GLOBAL_POSITION_INT {time_boot_ms : 17298655, lat : 535068909, lon : 492226557, alt : 55900, relative_alt : 2720, vx : 0, vy : -1, vz : 0, hdg : 1445}
1556201901.999753 GLOBAL_POSITION_INT {time_boot_ms : 17306655, lat : 535068886, lon : 492226510, alt : 55840, relative_alt : 2667, vx : 0, vy : 0, vz : 1, hdg : 2127}
1556201908.990158 GLOBAL_POSITION_INT {time_boot_ms : 17313655, lat : 535068860, lon : 492226461, alt : 55940, relative_alt : 2761, vx : 0, vy : -1, vz : 0, hdg : 2825}
1556201916.989391 GLOBAL_POSITION_INT {time_boot_ms : 17321655, lat : 535068832, lon : 492226426, alt : 56020, relative_alt : 2845, vx : 1, vy : 0, vz : 0, hdg : 3683}
1556201924.988608 GLOBAL_POSITION_INT {time_boot_ms : 17329655, lat : 535068793, lon : 492226416, alt : 55970, relative_alt : 2795, vx : 1, vy : 1, vz : 0, hdg : 4536}
1556201932.987727 GLOBAL_POSITION_INT {time_boot_ms : 17337655, lat : 535068763, lon : 492226425, alt : 56010, relative_alt : 2836, vx : 0, vy : 2, vz : 0, hdg : 5183}
1556201939.98683 GLOBAL_POSITION_INT {time_boot_ms : 17344655, lat : 535068736, lon : 492226434, alt : 55920, relative_alt : 2743, vx : -2, vy : 3, vz : 0, hdg : 5487}
1556201947.983904 GLOBAL_POSITION_INT {time_boot_ms : 17352655, lat : 535068702, lon : 492226421, alt : 56030, relative_alt : 2858, vx : -1, vy : 1, vz : -1, hdg : 5516}
1556201955.985208 GLOBAL_POSITION_INT {time_boot_ms : 17360655, lat : 535068668, lon : 492226404, alt : 55890, relative_alt : 2715, vx : 1, vy : 0, vz : 1, hdg : 5371}
1556201963.984117 GLOBAL_POSITION_INT {time_boot_ms : 17368655, lat : 535068638, lon : 492226392, alt : 56080, relative_alt : 2908, vx : 0, vy : 1, vz : -3, hdg : 5186}
1556201970.981863 GLOBAL_POSITION_INT {time_boot_ms : 17375655, lat : 535068617, lon : 492226385, alt : 56060, relative_alt : 2880, vx : 1, vy : 2, vz : 1, hdg : 5082}
1556201978.994514 GLOBAL_POSITION_INT {time_boot_ms : 17383655, lat : 535068603, lon : 492226382, alt : 56050, relative_alt : 2872, vx : 2, vy : 2, vz : -1, hdg : 4915}
1556201986.982318 GLOBAL_POSITION_INT {time_boot_ms : 17391655, lat : 535068594, lon : 492226381, alt : 56110, relative_alt : 2939, vx : 3, vy : 0, vz : -2, hdg : 4581}
1556201993.979055 GLOBAL_POSITION_INT {time_boot_ms : 17398655, lat : 535068590, lon : 492226380, alt : 56130, relative_alt : 2951, vx : 3, vy : 0, vz : -2, hdg : 4374}
1556202001.514005 GLOBAL_POSITION_INT {time_boot_ms : 17406155, lat : 535068584, lon : 492226367, alt : 56035, relative_alt : 2860, vx : 2, vy : 0, vz : -1, hdg : 4179}
1556202009.977728 GLOBAL_POSITION_INT {time_boot_ms : 17414655, lat : 535068568, lon : 492226348, alt : 56190, relative_alt : 3018, vx : 2, vy : 0, vz : -1, hdg : 4133}
1556202017.980467 GLOBAL_POSITION_INT {time_boot_ms : 17422655, lat : 535068557, lon : 492226343, alt : 56220, relative_alt : 2, vx : 3, vy : 1, vz : -2, hdg : 4059}
1556202024.975679 GLOBAL_POSITION_INT {time_boot_ms : 17429655, lat : 535068549, lon : 492226339, alt : 53450, relative_alt : -2761, vx : 2, vy : 0, vz : 16, hdg : 3861}
1556202032.975853 GLOBAL_POSITION_INT {time_boot_ms : 17437655, lat : 535068532, lon : 492226325, alt : 53110, relative_alt : -3100, vx : 3, vy : 0, vz : 2, hdg : 3780}
1556202040.974065 GLOBAL_POSITION_INT {time_boot_ms : 17445655, lat : 535068526, lon : 492226316, alt : 53290, relative_alt : -2924, vx : 4, vy : 0, vz : -2, hdg : 3800}
1556202048.983868 GLOBAL_POSITION_INT {time_boot_ms : 17453655, lat : 535068522, lon : 492226306, alt : 53310, relative_alt : -2902, vx : 5, vy : 1, vz : -3, hdg : 3877}
1556202055.973518 GLOBAL_POSITION_INT {time_boot_ms : 17460655, lat : 535068519, lon : 492226298, alt : 53480, relative_alt : 135, vx : 6, vy : 1, vz : -3, hdg : 3818}
1556202063.971057 GLOBAL_POSITION_INT {time_boot_ms : 17468655, lat : 535068530, lon : 492226286, alt : 53410, relative_alt : 68, vx : 9, vy : 1, vz : -2, hdg : 3800}
1556202071.97306 GLOBAL_POSITION_INT {time_boot_ms : 17476655, lat : 535068587, lon : 492226263, alt : 53540, relative_alt : 190, vx : 16, vy : 0, vz : -4, hdg : 3706}
